{"responseCode":0,"responseText":"Success.","responseDate":"10-04-2020 17:10:07","data":[{"schemeId":2,"schemeShortName":"Cork","stationId":2001,"name":"Gaol Walk","nameIrish":"Siúlán an Phríosúin","docksCount":29,"bikesAvailable":8,"docksAvailable":14,"status":0,"latitude":51.893604,"longitude":-8.494174,"dateStatus":"10-04-2020 17:10:00"},{"schemeId":2,"schemeShortName":"Cork","stationId":2002,"name":"Fitzgerald's Park","nameIrish":"Páirc an Ghearaltaigh","docksCount":15,"bikesAvailable":6,"docksAvailable":4,"status":0,"latitude":51.89555327,"longitude":-8.49341266,"dateStatus":"10-04-2020 17:10:00"},{"schemeId":2,"schemeShortName":"Cork","stationId":2003,"name":"Bandfield","nameIrish":"Páirc na mBanna","docksCount":33,"bikesAvailable":11,"docksAvailable":19,"status":0,"latitude":51.89580557,"longitude":-8.4891363,"dateStatus":"10-04-2020 17:10:00"},{"schemeId":2,"schemeShortName":"Cork","stationId":2004,"name":"Dyke Parade","nameIrish":"Paráid na Díge","docksCount":19,"bikesAvailable":9,"docksAvailable":0,"status":0,"latitude":51.89718531,"longitude":-8.48458467,"dateStatus":"10-04-2020 17:10:00"},{"schemeId":2,"schemeShortName":"Cork","stationId":2005,"name":"Mercy Hospital","nameIrish":"Ospidéal na Trócaire","docksCount":13,"bikesAvailable":0,"docksAvailable":13,"status":0,"latitude":51.89911495,"longitude":-8.48225676,"dateStatus":"10-04-2020 17:10:00"},{"schemeId":2,"schemeShortName":"Cork","stationId":2006,"name":"St. Fin Barre's Bridge","nameIrish":"Droichead Fhionnbarra","docksCount":25,"bikesAvailable":9,"docksAvailable":12,"status":0,"latitude":51.89710212,"longitude":-8.48196155,"dateStatus":"10-04-2020 17:10:00"},{"schemeId":2,"schemeShortName":"Cork","stationId":2007,"name":"Pope's Quay","nameIrish":"Cé an Phápa","docksCount":18,"bikesAvailable":11,"docksAvailable":7,"status":0,"latitude":51.901632,"longitude":-8.477385,"dateStatus":"10-04-2020 17:10:00"},{"schemeId":2,"schemeShortName":"Cork","stationId":2008,"name":"North Main St.","nameIrish":"An Phríomhshráid Thuaidh","docksCount":15,"bikesAvailable":5,"docksAvailable":9,"status":0,"latitude":51.89974733,"longitude":-8.47844005,"dateStatus":"10-04-2020 17:10:00"},{"schemeId":2,"schemeShortName":"Cork","stationId":2009,"name":"Grattan St.","nameIrish":"Sráid Grattan","docksCount":10,"bikesAvailable":6,"docksAvailable":4,"status":0,"latitude":51.8984737,"longitude":-8.47977966,"dateStatus":"10-04-2020 17:10:00"},{"schemeId":2,"schemeShortName":"Cork","stationId":2010,"name":"Wandesford Quay","nameIrish":"Cé Wandesford","docksCount":25,"bikesAvailable":10,"docksAvailable":12,"status":0,"latitude":51.896492,"longitude":-8.48004,"dateStatus":"10-04-2020 17:10:00"},{"schemeId":2,"schemeShortName":"Cork","stationId":2011,"name":"Bishop St.","nameIrish":"Sráid an Easpaig","docksCount":15,"bikesAvailable":7,"docksAvailable":4,"status":0,"latitude":51.89468826,"longitude":-8.4790268,"dateStatus":"10-04-2020 17:10:00"},{"schemeId":2,"schemeShortName":"Cork","stationId":2012,"name":"Camden Quay","nameIrish":"Cé Camden","docksCount":20,"bikesAvailable":11,"docksAvailable":8,"status":0,"latitude":51.901054,"longitude":-8.473342,"dateStatus":"10-04-2020 17:10:00"},{"schemeId":2,"schemeShortName":"Cork","stationId":2013,"name":"Corn Market St.","nameIrish":"Sráid Mhargadh an Arbhair","docksCount":22,"bikesAvailable":9,"docksAvailable":13,"status":0,"latitude":51.9,"longitude":-8.477,"dateStatus":"10-04-2020 17:10:00"},{"schemeId":2,"schemeShortName":"Cork","stationId":2014,"name":"Lapp's Quay","nameIrish":"Cé Lapp","docksCount":32,"bikesAvailable":6,"docksAvailable":24,"status":0,"latitude":51.898144,"longitude":-8.465735,"dateStatus":"10-04-2020 17:10:00"},{"schemeId":2,"schemeShortName":"Cork","stationId":2015,"name":"St. Patricks St.","nameIrish":"Sráid Naomh Pádraig","docksCount":20,"bikesAvailable":5,"docksAvailable":12,"status":0,"latitude":51.89850471,"longitude":-8.47261531,"dateStatus":"10-04-2020 17:10:00"},{"schemeId":2,"schemeShortName":"Cork","stationId":2016,"name":"South Main St.","nameIrish":"An Phríomhshráid Theas","docksCount"