{"help": "https://data.corkcity.ie/api/3/action/help_show?name=datastore_search", "success": true, "result": {"include_total": true, "resource_id": "6cc1028e-7388-4bc5-95b7-667a59aa76dc", "fields": [{"type": "int", "id": "_id"}, {"type": "int4", "id": "identifier"}, {"type": "text", "id": "name"}, {"type": "int4", "id": "spaces"}, {"type": "int4", "id": "free_spaces"}, {"type": "text", "id": "opening_times"}, {"type": "text", "id": "notes"}, {"type": "float8", "id": "latitude"}, {"type": "float8", "id": "longitude"}, {"type": "timestamp", "id": "date"}, {"type": "text", "id": "price"}, {"type": "text", "id": "height_restrictions"}], "records_format": "objects", "records": [{"_id":2,"identifier":2,"name":"North Main Street","spaces":330,"free_spaces":319,"opening_times":"Monday - Saturday 07.30 - 21.30, Sunday 11.30 - 21.30","notes":"","latitude":51.901008,"longitude":-8.477804,"date":"2020-12-17T22:16:01","price":"€1.70 per hour; Flat rate €2.00 from 18.30-21.30","height_restrictions":"2m"},{"_id":4,"identifier":103,"name":"City Hall - Eglington Street","spaces":436,"free_spaces":276,"opening_times":"24/7","notes":"","latitude":51.896579,"longitude":-8.464302,"date":"2020-12-17T22:19:01","price":"€2.90 per hour, max. €13 per day","height_restrictions":"2m"},{"_id":6,"identifier":101,"name":"Grand Parade","spaces":352,"free_spaces":300,"opening_times":"24/7","notes":"","latitude":51.896562,"longitude":-8.474557,"date":"2020-12-17T22:19:01","price":"€3 per hour","height_restrictions":"1.85m"},{"_id":1,"identifier":1,"name":"Paul Street","spaces":749,"free_spaces":712,"opening_times":"Monday - Saturday 07.30 -00.00, Sunday 11.30 - 00.00","notes":"","latitude":51.900542,"longitude":-8.475415,"date":"2020-12-17T22:16:01","price":"€2.30 per hour; Flat rate €3.50 from 18.30-24.00","height_restrictions":"2m"},{"_id":3,"identifier":9,"name":"Black Ash Park & Ride","spaces":935,"free_spaces":766,"opening_times":"Monday - Saturday 06:45 - 20:00","notes":"","latitude":51.878279,"longitude":-8.466956,"date":"2020-12-17T22:10:00","price":"€5 per day","height_restrictions":"2.1m"},{"_id":7,"identifier":108,"name":"Merchants Quay","spaces":710,"free_spaces":692,"opening_times":"Monday - Thursday and Saturday 08.00 - 19.00, Friday 08.00 - 21.00, Sunday 12.00 - 18.30","notes":"","latitude":51.8995765,"longitude":-8.4686481,"date":"2020-12-17T20:20:20","price":"€3 per hour","height_restrictions":"1.98m"},{"_id":5,"identifier":102,"name":"Carrolls Quay","spaces":376,"free_spaces":337,"opening_times":"24/7","notes":"","latitude":51.901788,"longitude":-8.472013,"date":"2020-12-17T22:19:01","price":"€2.80 per hour","height_restrictions":"2m"},{"_id":8,"identifier":104,"name":"Saint Finbarr's","spaces":350,"free_spaces":311,"opening_times":"24/7","notes":"","latitude":51.896723,"longitude":-8.482056,"date":"2020-12-17T22:19:01","price":"€2.80 per hour","height_restrictions":"2m"}], "_links": {"start": "/api/action/datastore_search?resource_id=6cc1028e-7388-4bc5-95b7-667a59aa76dc", "next": "/api/action/datastore_search?offset=100&resource_id=6cc1028e-7388-4bc5-95b7-667a59aa76dc"}, "total": 8}}